[
  {
    "id": 1,
    "name": "중앙도서관 6층 늘라온",
    "category": "sleep",
    "lat": null,
    "lng": null,
    "weekday": "06:00-23:00",
    "weekend": "06:00-23:00",
    "noise": "low",
    "reservation_required": false,
    "scale": 8
  },
  {
    "id": 2,
    "name": "공학원 1층",
    "category": "sit",
    "lat": 37.56065,
    "lng": 126.9358,
    "weekday": "07:00-22:00",
    "weekend": "X",
    "noise": "low",
    "reservation_required": false,
    "scale": 32
  },
  {
    "id": 3,
    "name": "공학원 지하 1층",
    "category": "sit",
    "lat": 37.56065,
    "lng": 126.9358,
    "weekday": "07:00-22:00",
    "weekend": "X",
    "noise": "middle",
    "reservation_required": false,
    "scale": 24
  },
  {
    "id": 4,
    "name": "제1공학관 1층",
    "category": "sit",
    "lat": 37.56179,
    "lng": 126.9366,
    "weekday": "07:00-22:00",
    "weekend": "X",
    "noise": "high",
    "reservation_required": false,
    "scale": 100
  },
  {
    "id": 5,
    "name": "제1공학관 2층",
    "category": "sit",
    "lat": 37.56191,
    "lng": 126.9359,
    "weekday": "07:00-22:00",
    "weekend": "X",
    "noise": "high",
    "reservation_required": false,
    "scale": 10
  },
  {
    "id": 6,
    "name": "제1공학관 3층",
    "category": "sit",
    "lat": 37.56191,
    "lng": 126.9359,
    "weekday": "07:00-22:00",
    "weekend": "X",
    "noise": "high",
    "reservation_required": false,
    "scale": 10
  },
  {
    "id": 7,
    "name": "제2공학관 1층",
    "category": "sit",
    "lat": 37.56229,
    "lng": 126.935,
    "weekday": "07:00-22:00",
    "weekend": "X",
    "noise": "middle",
    "reservation_required": false,
    "scale": 24
  },
  {
    "id": 8,
    "name": "스포츠과학관 2층",
    "category": "sit",
    "lat": 37.56277,
    "lng": 126.9355,
    "weekday": "07:00-22:00",
    "weekend": "X",
    "noise": "high",
    "reservation_required": false,
    "scale": 12
  },
  {
    "id": 9,
    "name": "과학관 1층",
    "category": "sit / sleep",
    "lat": 37.56414,
    "lng": 126.9344,
    "weekday": "07:00-22:00",
    "weekend": "X",
    "noise": "low",
    "reservation_required": false,
    "scale": 30
  },
  {
    "id": 10,
    "name": "학술정보관 8층 옥상정원",
    "category": "sit",
    "lat": 37.56386,
    "lng": 126.936,
    "weekday": "09:00-17:00",
    "weekend": "X",
    "noise": "middle",
    "reservation_required": false,
    "scale": 30
  },
  {
    "id": 11,
    "name": "학술정보관 8층 테이블",
    "category": "sit",
    "lat": 37.56386,
    "lng": 126.936,
    "weekday": "09:00-21:00",
    "weekend": "09:00-21:00",
    "noise": "low",
    "reservation_required": false,
    "scale": 24
  },
  {
    "id": 12,
    "name": "학술정보관 4층~8층",
    "category": "sit",
    "lat": 37.56386,
    "lng": 126.936,
    "weekday": "09:00-21:00",
    "weekend": "09:00-21:00",
    "noise": "low",
    "reservation_required": false,
    "scale": 120
  },
  {
    "id": 13,
    "name": "학술정보관 3층 Y-FLOW",
    "category": "sit / sleep",
    "lat": 37.56386,
    "lng": 126.936,
    "weekday": "09:00-21:00",
    "weekend": "X",
    "noise": "low",
    "reservation_required": false,
    "scale": 10
  },
  {
    "id": 14,
    "name": "학술정보관 1층 Y-SCAPE",
    "category": "sit / sleep",
    "lat": 37.56381,
    "lng": 126.9364,
    "weekday": "10:00-17:00",
    "weekend": "X",
    "noise": "low",
    "reservation_required": false,
    "scale": 8
  },
  {
    "id": 15,
    "name": "경영대학 B209",
    "category": "sleep",
    "lat": 37.5648019,
    "lng": 126.939094,
    "weekday": "07:00-22:00",
    "weekend": "X",
    "noise": "low",
    "reservation_required": false,
    "scale": 5
  },
  {
    "id": 16,
    "name": "경영대학 지하 2층 하온라운지",
    "category": "sit",
    "lat": 37.5648019,
    "lng": 126.939094,
    "weekday": "07:00-22:00",
    "weekend": "X",
    "noise": "middle",
    "reservation_required": false,
    "scale": 10
  },
  {
    "id": 17,
    "name": "경영대학 지하 2층 혜윰라운지",
    "category": "sit",
    "lat": 37.5648019,
    "lng": 126.939094,
    "weekday": "07:00-22:00",
    "weekend": "X",
    "noise": "middle",
    "reservation_required": false,
    "scale": 50
  },
  {
    "id": 18,
    "name": "경영대학 지하 1층 필운라운지",
    "category": "sit",
    "lat": 37.5648019,
    "lng": 126.939094,
    "weekday": "07:00-22:00",
    "weekend": "X",
    "noise": "middle",
    "reservation_required": false,
    "scale": 15
  },
  {
    "id": 19,
    "name": "경영대학 지하 1층 공간",
    "category": "sit",
    "lat": 37.5648019,
    "lng": 126.939094,
    "weekday": "07:00-22:00",
    "weekend": "X",
    "noise": "high",
    "reservation_required": false,
    "scale": 30
  },
  {
    "id": 20,
    "name": "경영대학 지하 1층 태온라운지",
    "category": "sit",
    "lat": 37.5648019,
    "lng": 126.939094,
    "weekday": "07:00-22:00",
    "weekend": "X",
    "noise": "middle",
    "reservation_required": false,
    "scale": 15
  },
  {
    "id": 21,
    "name": "경영대학 1층 계단",
    "category": "sit/sleep",
    "lat": 37.5648019,
    "lng": 126.939094,
    "weekday": "07:00-22:00",
    "weekend": "X",
    "noise": "middle",
    "reservation_required": false,
    "scale": 100
  },
  {
    "id": 22,
    "name": "경영대학 1층 라운지",
    "category": "sit",
    "lat": 37.5648019,
    "lng": 126.939094,
    "weekday": "07:00-22:00",
    "weekend": "X",
    "noise": "middle",
    "reservation_required": false,
    "scale": 40
  },
  {
    "id": 23,
    "name": "경영대학 2층 아모레퍼시픽아트리움",
    "category": "sit/sleep",
    "lat": 37.5648019,
    "lng": 126.939094,
    "weekday": "07:00-22:00",
    "weekend": "X",
    "noise": "middle",
    "reservation_required": false,
    "scale": 30
  },
  {
    "id": 24,
    "name": "경영대학 2층 이글루",
    "category": "sit",
    "lat": 37.5648019,
    "lng": 126.939094,
    "weekday": "07:00-22:00",
    "weekend": "X",
    "noise": "low",
    "reservation_required": false,
    "scale": 20
  },
  {
    "id": 25,
    "name": "외솔관 지하계단 앞",
    "category": "sleep",
    "lat": 37.5662945,
    "lng": 126.9372039,
    "weekday": "07:00-22:30",
    "weekend": "X",
    "noise": "low",
    "reservation_required": false,
    "scale": 5
  },
  {
    "id": 26,
    "name": "외솔관 지하1층 라운지",
    "category": "sit",
    "lat": 37.5662945,
    "lng": 126.9372039,
    "weekday": "07:00-22:30",
    "weekend": "X",
    "noise": "middle",
    "reservation_required": false,
    "scale": 10
  },
  {
    "id": 27,
    "name": "외솔관 1층 라운지",
    "category": "sit",
    "lat": 37.5662945,
    "lng": 126.9372039,
    "weekday": "07:00-22:30",
    "weekend": "X",
    "noise": "middle",
    "reservation_required": false,
    "scale": 24
  },
  {
    "id": 28,
    "name": "신학관 116",
    "category": "sleep",
    "lat": 37.5658641,
    "lng": 126.9366792,
    "weekday": "07:00-22:30",
    "weekend": "X",
    "noise": "low",
    "reservation_required": false,
    "scale": 5
  },
  {
    "id": 29,
    "name": "연희관 120",
    "category": "sleep",
    "lat": 37.5672699,
    "lng": 126.9390292,
    "weekday": "07:00-22:30",
    "weekend": "X",
    "noise": "low",
    "reservation_required": false,
    "scale": 2
  }
]
