[
  {
    "id": 1,
    "name": "중앙도서관 6층 늘라온",
    "category": "sleep",
    "lat": 37.5637,
    "lng": 126.9371,
    "weekday": "06:00-23:00",
    "weekend": "06:00-23:00",
    "noise": "low",
    "reservation_required": false,
    "scale": 8
  },
  {
    "id": 2,
    "name": "공학원 1층",
    "category": "sit",
    "lat": 37.5608313,
    "lng": 126.935725,
    "weekday": "07:00-22:00",
    "weekend": "X",
    "noise": "low",
    "reservation_required": false,
    "scale": 32
  },
  {
    "id": 3,
    "name": "공학원 지하 1층",
    "category": "sit",
    "lat": 37.5608993,
    "lng": 126.9353388,
    "weekday": "07:00-22:00",
    "weekend": "X",
    "noise": "middle",
    "reservation_required": false,
    "scale": 24
  },
  {
    "id": 0,
    "name": "제 1 공학관 1층",
    "category": "sit",
    "lat": 37.5613963,
    "lng": 126.9364857,
    "weekday": "07:00-22:00",
    "weekend": "X",
    "noise": "high",
    "reservation_required": false,
    "scale": 100
  },
  {
    "id": 0,
    "name": "제 1 공학관 2층",
    "category": "sit",
    "lat": 37.5614914,
    "lng": 126.9365144,
    "weekday": "07:00-22:00",
    "weekend": "X",
    "noise": "high",
    "reservation_required": false,
    "scale": 10
  },
  {
    "id": 6,
    "name": "제 1 공학관 3층",
    "category": "sit",
    "lat": 37.5615973,
    "lng": 126.9365627,
    "weekday": "07:00-22:00",
    "weekend": "X",
    "noise": "high",
    "reservation_required": false,
    "scale": 10
  },
  {
    "id": 0,
    "name": "제 2 공학관 1층",
    "category": "sit",
    "lat": 37.5623738,
    "lng": 126.9352164,
    "weekday": "07:00-22:00",
    "weekend": "X",
    "noise": "middle",
    "reservation_required": false,
    "scale": 24
  },
  {
    "id": 8,
    "name": "스포츠과학관 2층",
    "category": "sit",
    "lat": 37.5628263,
    "lng": 126.9355132,
    "weekday": "07:00-22:00",
    "weekend": "X",
    "noise": "high",
    "reservation_required": false,
    "scale": 12
  },
  {
    "id": 9,
    "name": "과학관 1층",
    "category": "sit / sleep",
    "lat": 37.5641183,
    "lng": 126.9346387,
    "weekday": "07:00-22:00",
    "weekend": "X",
    "noise": "low",
    "reservation_required": false,
    "scale": 30
  },
  {
    "id": 10,
    "name": "학술정보관 8층 옥상정원",
    "category": "sit",
    "lat": 37.5642161,
    "lng": 126.9359986,
    "weekday": "09:00-17:00",
    "weekend": "X",
    "noise": "middle",
    "reservation_required": false,
    "scale": 30
  },
  {
    "id": 11,
    "name": "학술정보관 8층 테이블",
    "category": "sit",
    "lat": 37.5641736,
    "lng": 126.9362346,
    "weekday": "09:00-21:00",
    "weekend": "09:00-21:00",
    "noise": "low",
    "reservation_required": false,
    "scale": 24
  },
  {
    "id": 12,
    "name": "학술정보관 4층~8층",
    "category": "sit",
    "lat": 37.564012,
    "lng": 126.936063,
    "weekday": "09:00-21:00",
    "weekend": "09:00-21:00",
    "noise": "low",
    "reservation_required": false,
    "scale": 120
  },
  {
    "id": 13,
    "name": "학술정보관 3층 Y-FLOW",
    "category": "sit / sleep",
    "lat": 37.5636888,
    "lng": 126.935784,
    "weekday": "09:00-21:00",
    "weekend": "X",
    "noise": "low",
    "reservation_required": false,
    "scale": 10
  },
  {
    "id": 14,
    "name": "학술정보관 1층 Y-SCAPE",
    "category": "sit / sleep",
    "lat": 37.5636378,
    "lng": 126.936063,
    "weekday": "10:00-17:00",
    "weekend": "X",
    "noise": "low",
    "reservation_required": false,
    "scale": 8
  },
  {
    "id": 0,
    "name": "경영대학 B209 (여휴)",
    "category": "sleep",
    "lat": 37.5648019,
    "lng": 126.939094,
    "weekday": "07:00-22:00",
    "weekend": "X",
    "noise": "low",
    "reservation_required": false,
    "scale": 5
  },
  {
    "id": 0,
    "name": "경영대학 지하 2층 하온라운지",
    "category": "sit",
    "lat": 37.5648019,
    "lng": 126.939094,
    "weekday": "07:00-22:00",
    "weekend": "X",
    "noise": "middle",
    "reservation_required": false,
    "scale": 10
  },
  {
    "id": 0,
    "name": "경영대학 지하 2층 혜윰라운지",
    "category": "sit",
    "lat": 37.5648019,
    "lng": 126.939094,
    "weekday": "07:00-22:00",
    "weekend": "X",
    "noise": "middle",
    "reservation_required": false,
    "scale": 50
  },
  {
    "id": 0,
    "name": "경영대학 지하 1층 필운라운지",
    "category": "sit",
    "lat": 37.5648019,
    "lng": 126.939094,
    "weekday": "07:00-22:00",
    "weekend": "X",
    "noise": "middle",
    "reservation_required": false,
    "scale": 15
  },
  {
    "id": 0,
    "name": "경영대학 지하 1층 공간",
    "category": "sit",
    "lat": 37.5648019,
    "lng": 126.939094,
    "weekday": "07:00-22:00",
    "weekend": "X",
    "noise": "high",
    "reservation_required": false,
    "scale": 30
  },
  {
    "id": 0,
    "name": "경영대학 지하 1층 태온라운지",
    "category": "sit",
    "lat": 37.5648019,
    "lng": 126.939094,
    "weekday": "07:00-22:00",
    "weekend": "X",
    "noise": "middle",
    "reservation_required": false,
    "scale": 15
  },
  {
    "id": 0,
    "name": "경영대학 1층 계단",
    "category": "sit / sleep",
    "lat": 37.5648019,
    "lng": 126.939094,
    "weekday": "07:00-22:00",
    "weekend": "X",
    "noise": "middle",
    "reservation_required": false,
    "scale": 100
  },
  {
    "id": 0,
    "name": "경영대학 1층 라운지",
    "category": "sit",
    "lat": 37.5648019,
    "lng": 126.939094,
    "weekday": "07:00-22:00",
    "weekend": "X",
    "noise": "middle",
    "reservation_required": false,
    "scale": 40
  },
  {
    "id": 0,
    "name": "경영대학 2층 아모레퍼시픽아트리움",
    "category": "sit / sleep",
    "lat": 37.5648019,
    "lng": 126.939094,
    "weekday": "07:00-22:00",
    "weekend": "X",
    "noise": "middle",
    "reservation_required": false,
    "scale": 30
  },
  {
    "id": 0,
    "name": "경영대학 2층 이글루",
    "category": "sit",
    "lat": 37.5648019,
    "lng": 126.939094,
    "weekday": "07:00-22:00",
    "weekend": "X",
    "noise": "low",
    "reservation_required": false,
    "scale": 20
  },
  {
    "id": 0,
    "name": "외솔관 지하계단 앞 (여휴)",
    "category": "sleep",
    "lat": 37.5664591,
    "lng": 126.9366289,
    "weekday": "07:00-22:30",
    "weekend": "X",
    "noise": "low",
    "reservation_required": false,
    "scale": 5
  },
  {
    "id": 0,
    "name": "외솔관 지하1층 라운지",
    "category": "sit",
    "lat": 37.5664272,
    "lng": 126.9367576,
    "weekday": "07:00-22:30",
    "weekend": "X",
    "noise": "middle",
    "reservation_required": false,
    "scale": 10
  },
  {
    "id": 0,
    "name": "외솔관 1층 라운지",
    "category": "sit",
    "lat": 37.5663996,
    "lng": 126.9369052,
    "weekday": "07:00-22:30",
    "weekend": "X",
    "noise": "middle",
    "reservation_required": false,
    "scale": 24
  },
  {
    "id": 0,
    "name": "신학관 116 (여휴)",
    "category": "sleep",
    "lat": 37.5659765,
    "lng": 126.9367201,
    "weekday": "07:00-22:30",
    "weekend": "X",
    "noise": "low",
    "reservation_required": false,
    "scale": 5
  },
  {
    "id": 0,
    "name": "연희관 120 (여휴)",
    "category": "sleep",
    "lat": ,
    "lng": ,
    "weekday": "07:00-22:30",
    "weekend": "X",
    "noise": "low",
    "reservation_required": false,
    "scale": 2
  }
]
